{
    "locations": [
      {
        "name": "Koramangala 5th Block",
        "coordinates": {"latitude": 12.9790, "longitude": 77.5875},
        "landmarks": {
          "2km": [{
              "place":"Forum Mall", "coordinates": {"latitude": 12.9790, "longitude": 77.5875}
          }],
          "3km": [
            {"place": "St. John's Medical College", "coordinates": {"latitude": 12.9355, "longitude": 77.6105}}
          ],
          "5km": [
            {"place": "Christ University", "coordinates": {"latitude": 12.9334, "longitude": 77.6245}}
          ]
        }
      },
      {
        "name": "Jayanagar 9th Block",
        "coordinates": {"latitude": 12.9222, "longitude": 77.5845},
        "landmarks": {
          "2km": [{
            "place": "South End Circle", "coordinates": {"latitude": 12.9218, "longitude": 77.5853}}],
          "3km": [{
            "place": "Ragigudda Temple", "coordinates": {"latitude": 12.9262, "longitude": 77.5722}}],
          "5km": [{
            "place": "National College Metro Station", "coordinates": {"latitude": 12.9481, "longitude": 77.5722}}]
        }
      },
      {
        "name": "ISKCON Temple",
        "coordinates": {"latitude": 13.0092, "longitude": 77.5511},
        "landmarks": {
          "2km": [{
            "place": "World Trade Center Bangalore", "coordinates": {"latitude": 12.9877, "longitude": 77.5691}}],
          "3km": [{
            "place": "Malleswaram Railway Station", "coordinates": {"latitude": 13.0033, "longitude": 77.5698}}],
          "5km": [{
            "place": "Mantri Square Mall", "coordinates": {"latitude": 12.9860, "longitude": 77.5713}}]
        }
      },
      {
        "name": "Vidhana Soudha",
        "coordinates": {"latitude": 12.9794, "longitude": 77.5912},
        "landmarks": {
          "2km": [{
            "place": "Bangalore Central Mall", "coordinates": {"latitude": 12.9796, "longitude": 77.5917}}],
          "3km": [{
            "place": "Chinnaswamy Stadium", "coordinates": {"latitude": 12.9784, "longitude": 77.5990}}],
          "5km": [{
            "place": "Bangalore Golf Club", "coordinates": {"latitude": 12.9940, "longitude": 77.5903}}]
        }
      },
      {
        "name": "Cubbon Park",
        "coordinates": {"latitude": 12.9770, "longitude": 77.5951},
        "landmarks": {
          "2km": [{
            "place": "UB City", "coordinates": {"latitude": 12.9716, "longitude": 77.5956}}],
          "3km": [{
            "place": "Bangalore Cantonment Railway Station", "coordinates": {"latitude": 12.9894, "longitude": 77.5974}}],
          "5km": [{
            "place": "Commercial Street", "coordinates": {"latitude": 12.9822, "longitude": 77.6080}}]
        }
      },
      {
        "name": "HSR Layout",
        "coordinates": {"latitude": 12.9122, "longitude": 77.6445},
        "landmarks": {
          "2km": [{
            "place": "Agara Lake", "coordinates": {"latitude": 12.9192, "longitude": 77.6441}}],
          "3km": [{
            "place": "Bellandur Lake", "coordinates": {"latitude": 12.9244, "longitude": 77.6677}}],
          "5km": [{
            "place": "Ecospace Business Park", "coordinates": {"latitude": 12.9184, "longitude": 77.6755}}]
        }
      },
      {
        "name": "JP Nagar",
        "coordinates": {"latitude": 12.9077, "longitude": 77.5937},
        "landmarks": {
          "2km": [{
            "place": "JP Nagar Shopping Complex", "coordinates": {"latitude": 12.9137, "longitude": 77.5972}}],
          "3km": [{
            "place": "Puttenahalli Lake", "coordinates": {"latitude": 12.8993, "longitude": 77.5949}}],
          "5km": [{
            "place": "Gopalan Innovation Mall", "coordinates": {"latitude": 12.9076, "longitude": 77.6150}}]
        }
      },
      {
        "name": "MG Road",
        "coordinates": {"latitude": 12.9741, "longitude": 77.6052},
        "landmarks": {
          "2km": [{
            "place": "UB City", "coordinates": {"latitude": 12.9716, "longitude": 77.5956}}],
          "3km": [{
            "place": "Commercial Street", "coordinates": {"latitude": 12.9822, "longitude": 77.6080}}],
          "5km": [{
            "place": "Vidhana Soudha", "coordinates": {"latitude": 12.9794, "longitude": 77.5912}}]
        }
      },
      {
        "name": "Silk Board",
        "coordinates": {"latitude": 12.9177, "longitude": 77.6236},
        "landmarks": {
          "2km": [{
            "place": "Central Silk Board", "coordinates": {"latitude": 12.9175, "longitude": 77.6213}}],
          "3km": [{
            "place": "Agara Lake", "coordinates": {"latitude": 12.9192, "longitude": 77.6441}}],
          "5km": [{
            "place": "Kaikondrahalli Lake", "coordinates": {"latitude": 12.9032, "longitude": 77.6544}}]
        }
      },
      {
        "name": "Kammanahalli",
        "coordinates": {"latitude": 13.0152, "longitude": 77.6365},
        "landmarks": {
          "2km": [{
            "place": "Kammanahalli Lake", "coordinates": {"latitude": 13.0154, "longitude": 77.6376}}],
          "3km": [{
            "place": "Manyata Tech Park", "coordinates": {"latitude": 13.0330, "longitude": 77.6209}}],
          "5km": [{
            "place": "Hebbal Lake", "coordinates": {"latitude": 13.0414, "longitude": 77.5890}}]
        }
      },
      {
        "name": "Indiranagar",
        "coordinates": {"latitude": 12.9738, "longitude": 77.6405},
        "landmarks": {
          "2km": [{
            "place": "100 Feet Road", "coordinates": {"latitude": 12.9737, "longitude": 77.6389}}],
          "3km": [{
            "place": "Bagmane Tech Park", "coordinates": {"latitude": 12.9714, "longitude": 77.6428}}],
          "5km": [{
            "place": "Manipal Hospital", "coordinates": {"latitude": 12.9730, "longitude": 77.6408}}]
        }
      },
      {
        "name": "Commercial Street",
        "coordinates": {"latitude": 12.9822, "longitude": 77.6080},
        "landmarks": {
          "2km": [{
            "place": "Brigade Road", "coordinates": {"latitude": 12.9717, "longitude": 77.6076}}],
          "3km": [{
            "place": "UB City", "coordinates": {"latitude": 12.9716, "longitude": 77.5956}}],
          "5km": [{
            "place": "Vidhana Soudha", "coordinates": {"latitude": 12.9794, "longitude": 77.5912}}]
        }
      },
      {
        "name": "Electronic City",
        "coordinates": {"latitude": 12.8459, "longitude": 77.6643},
        "landmarks": {
          "2km": [{
            "place": "Infosys", "coordinates": {"latitude": 12.8507, "longitude": 77.6609}}],
          "3km": [{
            "place": "Electronic City Flyover", "coordinates": {"latitude": 12.8518, "longitude": 77.6642}}],
          "5km": [{
            "place": "Silk Board", "coordinates": {"latitude": 12.9177, "longitude": 77.6236}}]
        }
      },
      {
        "name": "Marathahalli",
        "coordinates": {"latitude": 12.9568, "longitude": 77.7011},
        "landmarks": {
          "2km": [{
            "place": "Innovative Multiplex", "coordinates": {"latitude": 12.9546, "longitude": 77.7175}}],
          "3km": [{
            "place": "Central Mall", "coordinates": {"latitude": 12.9572, "longitude": 77.7025}}],
          "5km": [{
            "place": "Sarjapur Road", "coordinates": {"latitude": 12.9249, "longitude": 77.6750}}]
        }
      },
      {
        "name": "Whitefield",
        "coordinates": {"latitude": 12.9690, "longitude": 77.7497},
        "landmarks": {
          "2km": [{
            "place": "Phoenix Marketcity", "coordinates": {"latitude": 12.9917, "longitude": 77.7152}}],
          "3km": [{
            "place": "ITPL", "coordinates": {"latitude": 12.9913, "longitude": 77.7151}}],
          "5km": [{
            "place": "Hope Farm Junction", "coordinates": {"latitude": 12.9865, "longitude": 77.7444}}]
        }
      }
    ]  
  }
  
        